City,Lat,Lng,Min Temp,Max Temp,Humidity,Cloudiness,Wind Speed,Country,Date,Weather Description,Rainfall:Last 3 Hrs inches,Snowfall: Last 3 Hrs inches
Ishigaki,24.34,124.16,78.8,78.8,100,75,6.93,JP,2020-05-11 04:21:22,light intensity shower rain,0,0
Saskylakh,71.92,114.08,22.91,22.91,96,77,13.09,RU,2020-05-11 04:21:23,broken clouds,0,0
Qaanaaq,77.48,-69.36,6.89,6.89,76,0,6.04,GL,2020-05-11 04:21:23,clear sky,0,0
Castro,-24.79,-50.01,52.56,52.56,92,0,4.41,BR,2020-05-11 04:21:23,clear sky,0,0
Teya,60.38,92.63,68.5,68.5,45,76,9.71,RU,2020-05-11 04:21:23,broken clouds,0,0
Fort Nelson,58.81,-122.7,53.6,53.6,30,5,6.93,CA,2020-05-11 04:21:23,clear sky,0,0
Egvekinot,66.32,-179.17,32.65,32.65,100,100,3.56,RU,2020-05-11 04:21:24,light rain,0,0
Atuona,-9.8,-139.03,81.14,81.14,78,22,14.29,PF,2020-05-11 04:21:24,few clouds,0,0
Albany,42.6,-73.97,42.01,45.0,65,100,3.38,US,2020-05-11 04:21:24,overcast clouds,0,0
Yaan,7.38,8.57,75.16,75.16,90,66,5.59,NG,2020-05-11 04:21:25,broken clouds,0,0
Victoria,22.29,114.16,86.0,89.6,62,20,6.93,HK,2020-05-11 04:20:47,few clouds,0,0
Bethel,41.37,-73.41,46.0,53.6,37,1,10.29,US,2020-05-11 04:21:25,clear sky,0,0
Puerto Ayora,-0.74,-90.35,75.99,75.99,94,0,3.0,EC,2020-05-11 04:21:25,clear sky,0,0
Barybino,55.27,37.89,51.01,55.4,47,93,8.95,RU,2020-05-11 04:21:26,overcast clouds,0,0
Vaini,-21.2,-175.2,78.8,78.8,69,20,14.99,TO,2020-05-11 04:21:26,few clouds,0,0
Worland,44.02,-107.96,46.0,46.99,52,90,10.29,US,2020-05-11 04:21:26,overcast clouds,0,0
Chokurdakh,70.63,147.92,33.21,33.21,100,100,13.58,RU,2020-05-11 04:21:26,overcast clouds,0,0
Port Alfred,-33.59,26.89,63.0,63.0,79,0,1.01,ZA,2020-05-11 04:21:26,clear sky,0,0
Rikitea,-23.12,-134.97,75.2,75.2,76,30,10.16,PF,2020-05-11 04:21:27,scattered clouds,0,0
New Norfolk,-42.78,147.06,52.0,57.99,77,91,1.99,AU,2020-05-11 04:21:27,overcast clouds,0,0
Kapaa,22.08,-159.32,73.99,75.2,73,90,17.22,US,2020-05-11 04:21:27,overcast clouds,0,0
Barrow,71.29,-156.79,35.6,35.6,74,1,9.17,US,2020-05-11 04:21:27,clear sky,0,0
Bambous Virieux,-20.34,57.76,73.0,73.4,56,75,11.41,MU,2020-05-11 04:21:28,broken clouds,0,0
Norman Wells,65.28,-126.83,57.2,57.2,79,40,4.7,CA,2020-05-11 04:21:28,scattered clouds,0,0
Hermanus,-34.42,19.23,53.01,53.01,95,0,1.97,ZA,2020-05-11 04:21:28,clear sky,0,0
Carson City,39.16,-119.77,59.0,66.2,32,1,8.05,US,2020-05-11 04:21:28,clear sky,0,0
Benjamin Constant,-4.38,-70.03,77.0,77.0,100,75,1.12,BR,2020-05-11 04:21:29,broken clouds,0,0
Mancio Lima,-7.61,-72.9,73.54,73.54,82,41,1.79,BR,2020-05-11 04:21:29,scattered clouds,0,0
Bredasdorp,-34.53,20.04,59.0,59.0,87,0,5.82,ZA,2020-05-11 04:21:29,clear sky,0,0
San Quintin,30.48,-115.95,63.0,63.0,83,28,9.8,MX,2020-05-11 04:21:29,scattered clouds,0,0
Vila Velha,-20.33,-40.29,64.4,66.0,93,93,2.24,BR,2020-05-11 04:17:00,overcast clouds,0,0
Longyearbyen,78.22,15.64,17.6,17.6,67,40,3.36,SJ,2020-05-11 04:21:30,scattered clouds,0,0
Ilulissat,69.22,-51.1,28.4,28.4,86,98,3.36,GL,2020-05-11 04:17:27,overcast clouds,0,0
Tasiilaq,65.61,-37.64,28.4,28.4,79,9,6.93,GL,2020-05-11 04:21:30,clear sky,0,0
Ushuaia,-54.8,-68.3,42.8,42.8,70,40,8.05,AR,2020-05-11 04:21:30,scattered clouds,0,0
Chuy,-33.7,-53.46,64.99,64.99,79,32,7.65,UY,2020-05-11 04:21:30,light rain,0,0
Emerald,-23.53,148.17,73.4,73.99,16,11,14.99,AU,2020-05-11 04:21:31,few clouds,0,0
Betare Oya,5.6,14.08,67.14,67.14,97,88,2.13,CM,2020-05-11 04:21:31,light rain,0,0
Hami,42.8,93.45,74.34,74.34,15,0,5.88,CN,2020-05-11 04:21:31,clear sky,0,0
Port Elizabeth,-33.92,25.57,57.2,57.2,100,75,10.29,ZA,2020-05-11 04:21:32,broken clouds,0,0
Turayf,31.67,38.66,60.8,60.8,55,0,11.41,SA,2020-05-11 04:21:32,clear sky,0,0
Aguas Verdes,-3.48,-80.25,75.65,75.65,81,90,2.64,PE,2020-05-11 04:21:32,overcast clouds,0,0
Jamestown,42.1,-79.24,44.6,46.0,81,90,13.87,US,2020-05-11 04:21:33,light rain,0,0
Malatya,38.5,38.0,53.6,53.6,54,0,1.12,TR,2020-05-11 04:21:33,clear sky,0,0
Katsuura,35.13,140.3,75.0,82.0,83,20,11.41,JP,2020-05-11 04:21:33,few clouds,0,0
Ekibastuz,51.67,75.37,74.52,74.52,40,0,4.47,KZ,2020-05-11 04:21:33,clear sky,0,0
Gorontalo,0.54,123.06,90.55,90.55,56,63,7.72,ID,2020-05-11 04:21:34,broken clouds,0,0
Busselton,-33.65,115.33,66.0,71.01,47,69,4.12,AU,2020-05-11 04:21:34,broken clouds,0,0
Evora,38.57,-7.9,57.2,57.2,93,75,8.05,PT,2020-05-11 04:17:33,fog,0,0
Amudat,1.95,34.95,67.24,67.24,90,99,2.8,UG,2020-05-11 04:21:34,light rain,0,0
Ribeira Grande,38.52,-28.7,57.81,57.81,71,7,18.16,PT,2020-05-11 04:21:34,clear sky,0,0
Shimoda,34.67,138.95,75.2,75.2,73,40,9.17,JP,2020-05-11 04:16:51,scattered clouds,0,0
Bataipora,-22.3,-53.27,66.27,66.27,68,0,8.32,BR,2020-05-11 04:21:35,clear sky,0,0
Nicoya,10.15,-85.45,73.99,73.99,87,100,7.0,CR,2020-05-11 04:21:35,overcast clouds,0,0
Luderitz,-26.65,15.16,60.8,60.8,72,0,2.24,NA,2020-05-11 04:21:35,clear sky,0,0
Birao,10.28,22.79,77.27,77.27,61,0,3.58,CF,2020-05-11 04:21:36,clear sky,0,0
Codrington,-38.27,141.97,62.13,62.13,57,60,10.51,AU,2020-05-11 04:21:36,broken clouds,0,0
Lebu,-37.62,-73.65,52.11,52.11,85,76,3.62,CL,2020-05-11 04:21:36,broken clouds,0,0
Pathein,16.78,94.73,98.37,98.37,36,32,5.84,MM,2020-05-11 04:21:36,scattered clouds,0,0
Cape Town,-33.93,18.42,59.0,61.0,93,0,6.93,ZA,2020-05-11 04:21:37,clear sky,0,0
Vila Franca Do Campo,37.72,-25.43,57.2,57.2,62,75,5.82,PT,2020-05-11 04:17:05,broken clouds,0,0
Tadine,-21.55,167.88,72.95,72.95,66,97,5.12,NC,2020-05-11 04:21:37,overcast clouds,0,0
Wasseiges,50.62,5.01,41.0,43.0,75,100,21.92,BE,2020-05-11 04:21:38,overcast clouds,0,0
Kaitangata,-46.28,169.85,53.01,53.01,80,91,1.99,NZ,2020-05-11 04:21:38,overcast clouds,0,0
Paamiut,61.99,-49.67,41.36,41.36,77,100,11.7,GL,2020-05-11 04:21:38,overcast clouds,0,0
Nusaybin,37.08,41.22,46.4,46.4,81,0,4.7,TR,2020-05-11 04:21:38,clear sky,0,0
Port Hardy,50.7,-127.42,64.4,64.4,48,20,2.24,CA,2020-05-11 04:21:38,few clouds,0,0
Lorica,9.24,-75.81,80.4,80.4,91,80,5.86,CO,2020-05-11 04:21:39,broken clouds,0,0
Saint-Joseph,-21.37,55.62,71.6,72.0,60,75,6.93,RE,2020-05-11 04:21:39,broken clouds,0,0
Labuhan,-6.88,112.21,85.26,85.26,74,64,9.13,ID,2020-05-11 04:21:39,light rain,0,0
Klaksvik,62.23,-6.59,33.8,33.8,86,89,1.12,FO,2020-05-11 04:21:39,freezing rain,0,0
Lorengau,-2.02,147.27,85.06,85.06,81,42,9.48,PG,2020-05-11 04:21:39,moderate rain,0,0
Guerrero Negro,27.98,-114.06,63.0,63.0,82,100,13.69,MX,2020-05-11 04:21:40,overcast clouds,0,0
Mar Del Plata,-38.0,-57.56,46.4,55.99,81,2,6.93,AR,2020-05-11 04:17:17,clear sky,0,0
Soyo,-6.13,12.37,78.15,78.15,85,94,4.14,AO,2020-05-11 04:21:40,overcast clouds,0,0
Cabo San Lucas,22.89,-109.91,71.01,72.0,77,14,14.5,MX,2020-05-11 04:19:45,few clouds,0,0
Sesheke,-17.48,24.3,48.2,48.2,93,99,1.12,ZM,2020-05-11 04:21:40,overcast clouds,0,0
Arak,34.09,49.69,57.2,57.2,54,0,2.24,IR,2020-05-11 04:20:49,clear sky,0,0
Punta Arenas,-53.15,-70.92,41.0,41.0,80,75,10.29,CL,2020-05-11 04:21:41,broken clouds,0,0
Summerville,33.02,-80.18,54.0,59.0,87,1,4.9,US,2020-05-11 04:21:41,clear sky,0,0
Dongsheng,39.82,109.98,59.79,59.79,27,0,29.8,CN,2020-05-11 04:21:41,clear sky,0,0
Hilo,19.73,-155.09,73.0,78.8,61,75,5.82,US,2020-05-11 04:21:41,broken clouds,0,0
San Pedro De Uraba,8.28,-76.38,76.91,76.91,94,100,3.83,CO,2020-05-11 04:21:42,light rain,0,0
Mataura,-46.19,168.86,55.33,55.33,75,100,0.36,NZ,2020-05-11 04:21:42,overcast clouds,0,0
Geraldton,-28.77,114.6,73.4,73.4,46,92,13.87,AU,2020-05-11 04:21:42,overcast clouds,0,0
Dunedin,-45.87,170.5,57.16,57.16,69,96,8.08,NZ,2020-05-11 04:21:42,overcast clouds,0,0
Coihaique,-45.58,-72.07,37.4,37.4,93,29,3.36,CL,2020-05-11 04:21:42,scattered clouds,0,0
Bubaque,11.28,-15.83,77.41,77.41,72,0,8.39,GW,2020-05-11 04:21:43,clear sky,0,0
Hobart,-42.88,147.33,57.0,57.99,71,90,4.0,AU,2020-05-11 04:20:19,overcast clouds,0,0
Roebourne,-20.78,117.13,91.04,91.04,20,10,17.36,AU,2020-05-11 04:21:43,clear sky,0,0
Visnes,59.36,5.22,35.01,35.6,80,69,6.93,NO,2020-05-11 04:21:43,light rain,0,0
East London,-33.02,27.91,68.0,68.0,40,0,10.29,ZA,2020-05-11 04:21:44,clear sky,0,0
Ankang,32.68,109.02,75.72,75.72,23,75,6.4,CN,2020-05-11 04:21:44,broken clouds,0,0
Grand Gaube,-20.01,57.66,73.0,73.0,62,100,4.0,MU,2020-05-11 04:21:44,overcast clouds,0,0
Kavieng,-2.57,150.8,86.23,86.23,72,82,10.33,PG,2020-05-11 04:17:02,broken clouds,0,0
Georgetown,5.41,100.34,86.0,87.8,79,20,4.7,MY,2020-05-11 04:17:11,few clouds,0,0
Carnarvon,-24.87,113.63,77.45,77.45,51,0,7.78,AU,2020-05-11 04:21:45,clear sky,0,0
Hithadhoo,-0.6,73.08,85.48,85.48,77,78,11.63,MV,2020-05-11 04:21:45,light rain,0,0
Tuktoyaktuk,69.45,-133.04,32.0,32.0,99,20,9.17,CA,2020-05-11 04:21:45,few clouds,0,0
Atar,20.52,-13.05,79.11,79.11,20,23,11.32,MR,2020-05-11 04:21:45,few clouds,0,0
Eyl,7.98,49.82,83.14,83.14,72,60,4.32,SO,2020-05-11 04:21:41,broken clouds,0,0
Havoysund,71.0,24.66,32.0,33.8,86,90,18.34,NO,2020-05-11 04:21:46,light rain and snow,0,0
Evinayong,1.44,10.55,68.67,68.67,98,100,1.72,GQ,2020-05-11 04:21:46,overcast clouds,0,0
Riohacha,11.54,-72.91,78.94,78.94,78,12,7.74,CO,2020-05-11 04:21:46,few clouds,0,0
Arraial Do Cabo,-22.97,-42.03,71.33,71.33,69,0,21.85,BR,2020-05-11 04:21:46,clear sky,0,0
Khatanga,71.97,102.5,31.17,31.17,99,97,5.35,RU,2020-05-11 04:21:47,overcast clouds,0,0
Thompson,55.74,-97.86,24.8,24.8,49,5,6.93,CA,2020-05-11 04:21:47,clear sky,0,0
Weyburn,49.67,-103.85,34.0,34.0,47,47,4.0,CA,2020-05-11 04:21:47,scattered clouds,0,0
Nangomba,-10.9,38.5,66.83,66.83,97,62,4.03,TZ,2020-05-11 04:21:47,broken clouds,0,0
Provideniya,64.38,-173.3,36.81,36.81,92,100,9.19,RU,2020-05-11 04:21:47,overcast clouds,0,0
Anadyr,64.75,177.48,35.01,35.6,92,40,26.84,RU,2020-05-11 04:21:48,scattered clouds,0,0
Port Hedland,-20.32,118.57,93.2,93.2,10,71,17.22,AU,2020-05-11 04:21:48,broken clouds,0,0
Nikolskoye,59.7,30.79,48.0,51.8,37,86,8.95,RU,2020-05-11 04:21:48,overcast clouds,0,0
Broken Hill,-31.95,141.43,60.8,60.8,36,45,11.41,AU,2020-05-11 04:21:48,scattered clouds,0,0
Aklavik,68.22,-135.01,46.4,46.4,45,40,10.29,CA,2020-05-11 04:21:48,scattered clouds,0,0
Evensk,61.95,159.23,34.47,34.47,97,100,2.84,RU,2020-05-11 04:21:49,light snow,0,0
Kirakira,-10.45,161.92,84.56,84.56,76,51,9.66,SB,2020-05-11 04:21:49,light rain,0,0
Chapais,49.78,-74.85,23.0,23.0,79,90,18.34,CA,2020-05-11 04:21:49,overcast clouds,0,0
Hualmay,-11.1,-77.61,65.91,65.91,87,80,7.07,PE,2020-05-11 04:21:49,broken clouds,0,0
Yellowknife,62.46,-114.35,35.01,35.6,55,20,4.7,CA,2020-05-11 04:21:49,few clouds,0,0
Madimba,-10.4,40.33,76.35,76.35,82,96,12.08,TZ,2020-05-11 04:21:50,overcast clouds,0,0
Ambilobe,-13.2,49.05,72.27,72.27,77,0,4.5,MG,2020-05-11 04:21:50,clear sky,0,0
Mazatlan,23.22,-106.42,73.4,78.01,64,20,3.36,MX,2020-05-11 04:21:19,few clouds,0,0
Kayes,14.0,-11.0,91.4,91.4,49,73,6.93,ML,2020-05-11 04:21:50,broken clouds,0,0
Alofi,-19.06,-169.92,82.4,82.4,83,0,4.7,NU,2020-05-11 04:21:50,light rain,0,0
Vorchdorf,48.0,13.92,48.99,52.0,94,67,3.4,AT,2020-05-11 04:21:51,broken clouds,0,0
Rio Esteban,15.83,-86.3,78.19,78.19,85,98,2.15,HN,2020-05-11 04:21:51,overcast clouds,0,0
Gimli,50.63,-96.99,28.99,30.0,58,62,7.0,CA,2020-05-11 04:21:51,broken clouds,0,0
Namibe,-15.2,12.15,77.76,77.76,50,37,1.99,AO,2020-05-11 04:21:51,scattered clouds,0,0
Pevek,69.7,170.31,37.45,37.45,79,3,18.59,RU,2020-05-11 04:21:51,clear sky,0,0
Itoman,26.12,127.67,75.2,80.01,78,75,10.29,JP,2020-05-11 04:21:52,broken clouds,0,0
Tiksi,71.69,128.87,30.06,30.06,98,99,13.24,RU,2020-05-11 04:21:52,overcast clouds,0,0
Jaru,-10.44,-62.47,72.95,72.95,93,63,2.21,BR,2020-05-11 04:21:52,broken clouds,0,0
Makakilo City,21.35,-158.09,75.2,80.6,64,20,8.05,US,2020-05-11 04:21:53,few clouds,0,0
Gamba,-2.65,10.0,74.57,74.57,93,100,2.19,GA,2020-05-11 04:21:53,overcast clouds,0,0
Ust-Kut,56.79,105.77,52.29,52.29,40,8,6.76,RU,2020-05-11 04:21:53,clear sky,0,0
Gondar,12.6,37.47,68.25,68.25,41,90,7.54,ET,2020-05-11 04:21:53,overcast clouds,0,0
Batemans Bay,-35.72,150.18,66.0,66.0,36,0,6.46,AU,2020-05-11 04:21:54,clear sky,0,0
Ati,13.22,18.34,80.78,80.78,13,28,6.58,TD,2020-05-11 04:21:54,scattered clouds,0,0
Camacupa,-12.02,17.48,58.64,58.64,91,80,2.44,AO,2020-05-11 04:21:54,broken clouds,0,0
Radomsko,51.07,19.44,51.01,55.0,87,63,55.99,PL,2020-05-11 04:21:54,broken clouds,0,0
Haines Junction,60.75,-137.51,62.22,62.22,36,0,4.74,CA,2020-05-11 04:21:55,clear sky,0,0
Saldanha,-33.01,17.94,59.0,59.0,87,0,6.93,ZA,2020-05-11 04:21:55,clear sky,0,0
Severo-Kurilsk,50.68,156.12,35.89,35.89,83,100,6.78,RU,2020-05-11 04:21:55,overcast clouds,0,0
Bloomfield,40.81,-74.19,48.2,55.4,37,1,3.36,US,2020-05-11 04:19:36,clear sky,0,0
Orizona,-17.03,-48.3,58.05,58.05,92,0,5.01,BR,2020-05-11 04:21:55,clear sky,0,0
San Ramon,37.78,-121.98,53.01,57.99,67,1,11.41,US,2020-05-11 04:21:56,clear sky,0,0
Mangai,-4.05,19.53,69.08,69.08,99,45,1.7,CD,2020-05-11 04:21:56,scattered clouds,0,0
Jalu,29.03,21.55,69.04,69.04,23,6,10.67,LY,2020-05-11 04:21:56,clear sky,0,0
Honiara,-9.43,159.95,89.6,89.6,70,40,4.7,SB,2020-05-11 04:21:56,scattered clouds,0,0
Dingle,11.0,122.67,93.67,93.67,47,100,6.46,PH,2020-05-11 04:21:57,overcast clouds,0,0
Tambun,-6.26,107.07,87.8,87.8,66,40,8.05,ID,2020-05-11 04:21:57,scattered clouds,0,0
Clyde River,70.47,-68.59,12.2,12.2,85,90,5.82,CA,2020-05-11 04:21:57,overcast clouds,0,0
Vestmanna,62.16,-7.17,33.8,33.8,86,90,1.12,FO,2020-05-11 04:21:57,freezing rain,0,0
Cayenne,4.93,-52.33,77.0,77.0,100,90,13.73,GF,2020-05-11 04:21:58,light rain,0,0
Bulgan,48.81,103.53,63.95,63.95,31,32,15.55,MN,2020-05-11 04:21:58,scattered clouds,0,0
Bluff,-46.6,168.33,54.34,54.34,81,100,8.01,NZ,2020-05-11 04:21:58,overcast clouds,0,0
Salalah,17.02,54.09,84.2,84.2,74,20,2.24,OM,2020-05-11 04:21:22,few clouds,0,0
Addis Abeba,9.03,38.75,55.4,55.4,71,20,4.7,ET,2020-05-11 04:21:58,few clouds,0,0
Nyzhnya Duvanka,49.58,38.17,54.16,54.16,82,55,11.27,UA,2020-05-11 04:21:59,broken clouds,0,0
Korla,41.76,86.15,73.65,73.65,16,100,7.87,CN,2020-05-11 04:21:59,overcast clouds,0,0
Chokwe,-24.53,32.98,59.18,59.18,93,0,2.75,MZ,2020-05-11 04:21:59,clear sky,0,0
Aksha,50.28,113.29,54.32,54.32,36,26,22.37,RU,2020-05-11 04:21:59,scattered clouds,0,0
Bathsheba,13.22,-59.52,80.6,80.6,78,75,21.92,BB,2020-05-11 04:21:59,light intensity shower rain,0,0
Bonito,-21.12,-56.48,65.44,65.44,83,0,4.81,BR,2020-05-11 04:21:59,clear sky,0,0
Touros,-5.2,-35.46,75.2,75.2,94,40,4.7,BR,2020-05-11 04:22:00,scattered clouds,0,0
Loa Janan,-0.58,117.09,94.44,94.44,49,40,3.13,ID,2020-05-11 04:22:00,scattered clouds,0,0
Mount Isa,-20.73,139.5,78.8,78.8,11,0,13.87,AU,2020-05-11 04:22:00,clear sky,0,0
Cairns,-16.92,145.77,84.2,84.2,54,40,20.8,AU,2020-05-11 04:20:13,scattered clouds,0,0
Alice Springs,-23.7,133.88,64.4,64.4,25,96,12.75,AU,2020-05-11 04:22:00,overcast clouds,0,0
Sur,22.57,59.53,91.83,91.83,31,18,6.17,OM,2020-05-11 04:22:01,few clouds,0,0
Diamantino,-14.41,-56.45,71.65,71.65,88,0,5.32,BR,2020-05-11 04:22:01,clear sky,0,0
Kununurra,-15.77,128.73,87.8,87.8,16,0,11.41,AU,2020-05-11 04:22:01,clear sky,0,0
Wanlaweyn,2.62,44.89,78.17,78.17,86,85,14.14,SO,2020-05-11 04:22:01,overcast clouds,0,0
Ballina,-28.87,153.57,66.0,69.8,64,40,16.11,AU,2020-05-11 04:22:01,scattered clouds,0,0
Antoing,50.56,3.47,42.8,45.0,70,100,19.46,BE,2020-05-11 04:22:02,overcast clouds,0,0
Qaqortoq,60.72,-46.03,57.2,57.2,33,54,16.11,GL,2020-05-11 04:22:02,broken clouds,0,0
Bengkulu,-3.8,102.27,87.04,87.04,64,91,2.51,ID,2020-05-11 04:22:02,overcast clouds,0,0
Grindavik,63.84,-22.43,42.8,42.8,87,75,10.29,IS,2020-05-11 04:22:02,shower rain,0,0
Necochea,-38.55,-58.74,54.0,54.0,60,0,5.01,AR,2020-05-11 04:22:02,clear sky,0,0
Shelburne,44.08,-80.2,34.0,35.6,93,90,7.96,CA,2020-05-11 04:22:03,overcast clouds,0,0
Ledyard,41.44,-72.01,48.0,50.0,87,1,11.41,US,2020-05-11 04:22:03,clear sky,0,0
Hobyo,5.35,48.53,84.16,84.16,77,53,9.55,SO,2020-05-11 04:22:03,broken clouds,0,0
Airai,-8.93,125.41,73.71,73.71,68,32,4.43,TL,2020-05-11 04:22:03,scattered clouds,0,0
Nsanje,-16.92,35.26,61.9,61.9,95,63,2.82,MW,2020-05-11 04:22:03,broken clouds,0,0
Praia,14.92,-23.51,71.6,71.6,73,40,21.92,CV,2020-05-11 04:22:04,scattered clouds,0,0
Narsaq,60.92,-46.05,57.2,57.2,33,32,16.11,GL,2020-05-11 04:22:04,scattered clouds,0,0
Norden,53.6,7.2,43.0,46.0,93,86,5.01,DE,2020-05-11 04:22:04,overcast clouds,0,0
Gobabis,-22.45,18.97,57.2,57.2,54,0,5.82,NA,2020-05-11 04:22:04,clear sky,0,0
Buritis,-15.62,-46.42,62.19,62.19,86,15,3.06,BR,2020-05-11 04:20:11,few clouds,0,0
Collie,-33.37,116.15,66.0,69.01,47,15,4.68,AU,2020-05-11 04:22:05,few clouds,0,0
Bani Walid,31.76,13.99,79.3,79.3,17,0,10.85,LY,2020-05-11 04:22:05,clear sky,0,0
West Bay,19.37,-81.42,81.0,82.99,74,100,5.01,KY,2020-05-11 04:20:35,overcast clouds,0,0
Bonavista,48.65,-53.11,33.1,33.1,92,10,21.99,CA,2020-05-11 04:22:05,clear sky,0,0
Broome,42.25,-75.83,44.01,46.4,88,90,2.98,US,2020-05-11 04:22:05,overcast clouds,0,0
Nanakuli,21.39,-158.15,75.2,80.6,64,20,8.05,US,2020-05-11 04:22:06,few clouds,0,0
La Ronge,55.1,-105.28,28.4,28.4,46,5,2.24,CA,2020-05-11 04:22:06,clear sky,0,0
Skibbereen,51.55,-9.27,39.2,39.2,60,75,14.99,IE,2020-05-11 04:22:06,broken clouds,0,0
Port Blair,11.67,92.75,87.3,87.3,67,100,10.22,IN,2020-05-11 04:22:06,moderate rain,0,0
Bakchar,57.02,82.07,78.33,78.33,36,0,3.69,RU,2020-05-11 04:22:06,clear sky,0,0
Zilupe,56.39,28.12,49.82,49.82,73,89,8.21,LV,2020-05-11 04:22:06,overcast clouds,0,0
Cherskiy,68.75,161.3,44.19,44.19,59,99,20.62,RU,2020-05-11 04:22:07,overcast clouds,0,0
Portland,45.52,-122.68,72.0,78.01,29,1,7.25,US,2020-05-11 04:19:26,clear sky,0,0
Tiarei,-17.53,-149.33,82.4,82.4,74,97,3.36,PF,2020-05-11 04:22:07,overcast clouds,0,0
Altay,47.87,88.12,71.33,71.33,19,68,5.55,CN,2020-05-11 04:22:07,broken clouds,0,0
Dikson,73.51,80.55,27.91,27.91,98,100,14.14,RU,2020-05-11 04:22:07,overcast clouds,0,0
Bilma,18.69,12.92,78.96,78.96,14,0,6.4,NE,2020-05-11 04:22:08,clear sky,0,0
Sambava,-14.27,50.17,75.52,75.52,81,94,14.12,MG,2020-05-11 04:22:08,light rain,0,0
Maragogi,-9.01,-35.22,76.77,76.77,86,93,5.37,BR,2020-05-11 04:20:25,moderate rain,0,0
Dangtu,31.57,118.49,80.6,80.6,44,75,8.95,CN,2020-05-11 04:22:08,broken clouds,0,0
Husavik,66.04,-17.34,39.2,39.2,55,90,23.04,IS,2020-05-11 04:22:08,overcast clouds,0,0
Shirgaon,19.7,72.7,89.6,89.6,62,20,11.41,IN,2020-05-11 04:22:09,smoke,0,0
La Rioja,42.25,-2.5,53.6,53.6,81,40,9.17,ES,2020-05-11 04:22:09,scattered clouds,0,0
Lomza,53.18,22.06,56.95,56.95,92,96,10.38,PL,2020-05-11 04:22:09,light rain,0,0
Souillac,-20.52,57.52,73.4,73.4,56,75,11.41,MU,2020-05-11 04:22:09,broken clouds,0,0
Biak,-0.91,122.88,85.62,85.62,65,81,6.67,ID,2020-05-11 04:22:09,broken clouds,0,0
Beisfjord,68.38,17.6,32.0,32.0,92,94,11.41,NO,2020-05-11 04:22:10,light snow,0,0
Saint-Augustin,51.23,-58.65,35.69,35.69,85,81,18.75,CA,2020-05-11 04:22:10,broken clouds,0,0
San Patricio,19.22,-104.7,72.5,72.5,80,18,2.75,MX,2020-05-11 04:22:10,few clouds,0,0
Acarau,-2.89,-40.12,76.06,76.06,84,49,7.7,BR,2020-05-11 04:22:10,light rain,0,0
Natori,38.17,140.88,78.8,78.8,29,20,17.22,JP,2020-05-11 04:22:10,few clouds,0,0
Gornopravdinsk,60.05,69.9,71.2,71.2,47,65,7.87,RU,2020-05-11 04:22:11,broken clouds,0,0
Salinopolis,-0.61,-47.36,79.36,79.36,86,48,8.37,BR,2020-05-11 04:22:11,light rain,0,0
Kasempa,-13.46,25.83,52.7,52.7,94,67,4.47,ZM,2020-05-11 04:22:11,broken clouds,0,0
Berlevag,70.86,29.09,33.8,33.8,86,75,16.11,NO,2020-05-11 04:22:12,broken clouds,0,0
San Carlos,9.66,-68.58,78.82,78.82,69,1,2.15,VE,2020-05-11 04:22:12,clear sky,0,0
Matara,5.95,80.54,88.05,88.05,64,100,1.1,LK,2020-05-11 04:22:12,overcast clouds,0,0
Russell,32.35,-85.2,51.8,64.4,81,1,4.59,US,2020-05-11 04:21:23,clear sky,0,0
Dudinka,69.41,86.18,37.4,37.4,74,64,11.18,RU,2020-05-11 04:22:12,broken clouds,0,0
Holme,56.11,10.17,36.0,41.0,65,2,9.17,DK,2020-05-11 04:22:13,clear sky,0,0
Kalasin,16.5,103.5,82.4,82.4,69,75,14.99,TH,2020-05-11 04:22:13,broken clouds,0,0
Aykhal,66.0,111.5,32.0,32.0,96,90,11.18,RU,2020-05-11 04:22:13,light shower snow,0,0
Marsh Harbour,26.54,-77.06,73.27,73.27,88,100,16.24,BS,2020-05-11 04:22:13,light rain,0,0
Constitucion,-35.33,-72.42,53.31,53.31,71,37,7.9,CL,2020-05-11 04:22:14,scattered clouds,0,0
Saint-Philippe,-21.36,55.77,64.0,72.0,60,75,6.93,RE,2020-05-11 04:22:14,broken clouds,0,0
Corbu,44.38,28.65,55.0,55.4,71,78,9.17,RO,2020-05-11 04:22:14,broken clouds,0,0
Isangel,-19.55,169.27,77.0,77.0,65,20,6.93,VU,2020-05-11 04:22:14,few clouds,0,0
Sindou,10.67,-5.17,77.86,77.86,73,100,3.69,BF,2020-05-11 04:22:15,light rain,0,0
Chastyye,57.29,54.97,58.44,58.44,66,100,5.7,RU,2020-05-11 04:22:15,overcast clouds,0,0
Kodiak,57.79,-152.41,51.8,51.8,53,75,8.05,US,2020-05-11 04:22:15,broken clouds,0,0
Lannion,48.75,-3.42,46.4,46.4,75,90,13.87,FR,2020-05-11 04:22:15,overcast clouds,0,0
Comodoro Rivadavia,-45.87,-67.5,48.2,48.2,70,25,9.17,AR,2020-05-11 04:17:44,scattered clouds,0,0
Acapulco,16.86,-99.89,82.4,82.4,78,20,4.7,MX,2020-05-11 04:17:44,few clouds,0,0
Pilar,-9.6,-35.96,73.4,73.4,100,75,2.24,BR,2020-05-11 04:22:16,broken clouds,0,0
Tessalit,20.2,1.01,83.71,83.71,14,10,7.83,ML,2020-05-11 04:22:16,clear sky,0,0
Gerash,27.67,54.14,84.2,84.2,35,72,4.7,IR,2020-05-11 04:19:22,broken clouds,0,0
Kiunga,-6.12,141.29,86.59,86.59,71,98,5.46,PG,2020-05-11 04:22:16,light rain,0,0
Slonim,53.09,25.32,54.43,54.43,72,94,12.15,BY,2020-05-11 04:22:17,overcast clouds,0,0
Cascais,38.7,-9.42,60.01,62.01,87,56,20.38,PT,2020-05-11 04:22:17,moderate rain,0,0
Norrtalje,59.76,18.7,34.0,39.0,84,100,5.99,SE,2020-05-11 04:21:15,overcast clouds,0,0
Yerofey Pavlovich,53.97,121.97,50.41,50.41,40,32,15.21,RU,2020-05-11 04:22:17,scattered clouds,0,0
Bridlington,54.08,-0.19,39.0,39.99,80,73,8.05,GB,2020-05-11 04:22:18,broken clouds,0,0
Upernavik,72.79,-56.15,14.05,14.05,87,95,10.98,GL,2020-05-11 04:22:18,overcast clouds,0,0
Coquimbo,-29.95,-71.34,51.8,51.8,93,0,1.12,CL,2020-05-11 04:22:18,clear sky,0,0
Palu,-0.89,119.87,89.42,89.42,63,33,2.95,ID,2020-05-11 04:22:18,light rain,0,0
Brae,60.4,-1.35,35.6,35.6,80,96,9.17,GB,2020-05-11 04:22:18,overcast clouds,0,0
Morondava,-20.28,44.28,75.22,75.22,66,88,6.51,MG,2020-05-11 04:22:19,overcast clouds,0,0
Alta Floresta,-9.88,-56.09,70.86,70.86,98,100,3.06,BR,2020-05-11 04:22:19,overcast clouds,0,0
Vostok,46.49,135.88,50.47,50.47,75,100,2.28,RU,2020-05-11 04:22:19,overcast clouds,0,0
Putai,46.66,1.99,57.2,57.2,100,75,16.11,FR,2020-05-11 04:22:19,light rain,0,0
Torbay,47.67,-52.73,35.01,37.0,80,90,17.22,CA,2020-05-11 04:22:20,overcast clouds,0,0
Lavrentiya,65.58,-171.0,36.99,36.99,91,99,6.06,RU,2020-05-11 04:22:20,overcast clouds,0,0
Ponta Delgada,37.73,-25.67,57.2,57.2,62,75,5.82,PT,2020-05-11 04:22:20,broken clouds,0,0
Mielec,50.29,21.42,57.99,62.6,59,26,9.17,PL,2020-05-11 04:22:20,scattered clouds,0,0
Muscat,23.61,58.59,95.0,95.0,17,1,6.69,OM,2020-05-11 04:22:20,clear sky,0,0
Aasiaat,68.71,-52.87,29.1,29.1,95,100,9.66,GL,2020-05-11 04:22:21,overcast clouds,0,0
Burns Lake,54.23,-125.75,45.84,45.84,54,53,5.84,CA,2020-05-11 04:21:53,broken clouds,0,0
Santa Rosa,14.31,121.11,93.99,96.01,53,20,6.93,PH,2020-05-11 04:22:21,few clouds,0,0
Meulaboh,4.14,96.13,85.39,85.39,72,100,6.73,ID,2020-05-11 04:22:21,light rain,0,0
Juazeiro,-9.41,-40.5,71.13,71.13,81,48,16.75,BR,2020-05-11 04:22:21,scattered clouds,0,0
Talavera,15.62,120.93,91.4,91.4,63,40,2.24,PH,2020-05-11 04:22:21,scattered clouds,0,0
Tara,56.89,74.37,74.44,74.44,41,51,4.54,RU,2020-05-11 04:22:22,broken clouds,0,0
Mizque,-17.94,-65.34,60.28,60.28,64,66,3.69,BO,2020-05-11 04:22:22,broken clouds,0,0
Ler,8.3,30.14,79.93,79.93,65,93,4.09,SS,2020-05-11 04:22:22,overcast clouds,0,0
Kalabo,-14.97,22.68,56.95,56.95,75,25,4.52,ZM,2020-05-11 04:22:22,scattered clouds,0,0
Saint George,37.1,-113.58,75.2,75.2,36,40,19.46,US,2020-05-11 04:17:27,scattered clouds,0,0
Govindgarh,27.5,76.98,99.05,99.05,19,0,4.36,IN,2020-05-11 04:22:23,clear sky,0,0
Huambo,-12.78,15.74,56.62,56.62,80,100,1.59,AO,2020-05-11 04:22:23,overcast clouds,0,0
Decatur,39.84,-88.95,41.0,44.01,75,90,4.7,US,2020-05-11 04:20:39,overcast clouds,0,0
Edd,13.93,41.69,85.93,85.93,68,15,10.69,ER,2020-05-11 04:22:23,few clouds,0,0
Gizo,-8.1,156.84,84.16,84.16,77,100,15.26,SB,2020-05-11 04:22:23,light rain,0,0
Ewa Beach,21.32,-158.01,75.2,80.6,51,20,16.11,US,2020-05-11 04:19:41,few clouds,0,0
Riachao Das Neves,-11.75,-44.91,68.25,68.25,86,96,2.17,BR,2020-05-11 04:22:24,overcast clouds,0,0
Lasa,46.62,10.7,48.2,52.0,100,90,17.22,IT,2020-05-11 04:20:58,light rain,0,0
Marawi,8.0,124.29,84.99,84.99,84,67,10.0,PH,2020-05-11 04:22:24,moderate rain,0,0
Verkhnevilyuysk,63.45,120.32,46.04,46.04,49,0,10.42,RU,2020-05-11 04:22:25,clear sky,0,0
Honningsvag,70.98,25.97,33.8,33.8,86,90,18.34,NO,2020-05-11 04:22:25,light rain and snow,0,0
Sinnamary,5.38,-52.95,78.12,78.12,90,99,14.88,GF,2020-05-11 04:22:25,moderate rain,0,0
Jutai,-5.18,-68.9,72.57,72.57,97,54,1.72,BR,2020-05-11 04:22:25,light rain,0,0
Buraydah,26.33,43.98,78.8,78.8,39,40,8.05,SA,2020-05-11 04:22:25,scattered clouds,0,0
Kawalu,-7.38,108.21,81.59,81.59,76,95,4.14,ID,2020-05-11 04:22:26,light rain,0,0
Muravlenko,63.79,74.52,67.03,67.03,42,97,13.94,RU,2020-05-11 04:22:26,overcast clouds,0,0
Marzuq,14.4,46.47,80.37,80.37,18,7,4.63,YE,2020-05-11 04:22:26,clear sky,0,0
Faanui,-16.48,-151.75,82.42,82.42,74,47,10.33,PF,2020-05-11 04:22:26,scattered clouds,0,0
Nago,26.59,127.98,75.2,80.6,83,90,6.93,JP,2020-05-11 04:22:26,overcast clouds,0,0
Cidreira,-30.18,-50.21,65.95,65.95,71,100,8.34,BR,2020-05-11 04:22:27,overcast clouds,0,0
Singaraja,-8.11,115.09,84.99,84.99,68,73,5.7,ID,2020-05-11 04:22:27,broken clouds,0,0
Fortuna,40.6,-124.16,53.01,55.99,87,1,6.93,US,2020-05-11 04:22:27,clear sky,0,0
Sitka,57.05,-135.33,66.2,66.2,34,75,5.82,US,2020-05-11 04:22:28,broken clouds,0,0
Mae Sai,20.43,99.88,87.8,91.0,66,55,2.24,TH,2020-05-11 04:22:28,broken clouds,0,0
General Pico,-35.66,-63.76,54.48,54.48,41,45,9.42,AR,2020-05-11 04:22:28,scattered clouds,0,0
Quatre Cocos,-20.21,57.76,73.0,73.4,56,75,11.41,MU,2020-05-11 04:22:29,broken clouds,0,0
Ixtapa,20.7,-105.2,74.95,74.95,41,48,3.02,MX,2020-05-11 04:22:29,scattered clouds,0,0
Ahuimanu,21.44,-157.84,72.0,86.0,51,1,11.41,US,2020-05-11 04:22:29,clear sky,0,0
Vardo,70.37,31.11,32.0,32.0,97,75,16.11,NO,2020-05-11 04:22:29,light rain and snow,0,0
Sao Filipe,14.9,-24.5,72.91,72.91,74,4,7.07,CV,2020-05-11 04:22:29,clear sky,0,0
Huron,41.15,-82.55,44.01,44.01,83,75,5.99,US,2020-05-11 04:22:29,broken clouds,0,0
Chengzihe,45.33,131.07,58.05,58.05,53,92,15.32,CN,2020-05-11 04:22:30,light rain,0,0
Mahebourg,-20.41,57.7,73.4,73.4,56,75,11.41,MU,2020-05-11 04:22:30,broken clouds,0,0
Tiznit,29.58,-9.5,55.8,55.8,87,74,6.82,MA,2020-05-11 04:22:30,broken clouds,0,0
Jiexiu,37.02,111.91,67.12,67.12,24,0,19.69,CN,2020-05-11 04:22:30,clear sky,0,0
Sfantu Gheorghe,45.87,25.78,48.99,48.99,66,86,7.0,RO,2020-05-11 04:22:31,overcast clouds,0,0
Sarkand,45.41,79.92,68.85,68.85,41,11,5.53,KZ,2020-05-11 04:22:31,few clouds,0,0
Padang,-0.95,100.35,88.56,88.56,58,100,4.27,ID,2020-05-11 04:22:31,overcast clouds,0,0
Gamboula,4.12,15.14,68.99,68.99,99,86,3.13,CF,2020-05-11 04:22:31,moderate rain,0,0
Ossora,59.24,163.07,34.72,34.72,91,99,2.21,RU,2020-05-11 04:22:32,overcast clouds,0,0
Karratha,-20.74,116.85,91.53,91.53,19,0,18.39,AU,2020-05-11 04:22:32,clear sky,0,0
College,64.86,-147.8,73.99,78.8,28,20,11.41,US,2020-05-11 04:22:32,few clouds,0,0
Coari,-4.08,-63.14,74.1,74.1,95,1,0.98,BR,2020-05-11 04:22:32,clear sky,0,0
Asmar,35.03,71.36,77.5,77.5,33,98,3.15,AF,2020-05-11 04:22:32,light rain,0,0
Pahrump,36.21,-115.98,82.99,82.99,14,91,4.0,US,2020-05-11 04:22:33,overcast clouds,0,0
Andros Town,24.7,-77.77,75.2,75.2,88,90,6.93,BS,2020-05-11 04:22:33,overcast clouds,0,0
Antalaha,-14.9,50.28,73.85,73.85,82,79,9.98,MG,2020-05-11 04:22:33,broken clouds,0,0
Mandan,46.83,-100.89,32.0,41.0,88,75,3.36,US,2020-05-11 04:20:07,broken clouds,0,0
Narrabri,-30.32,149.78,64.0,64.4,31,0,12.75,AU,2020-05-11 04:22:33,clear sky,0,0
Oranjemund,-28.55,16.43,70.66,70.66,34,0,4.7,NA,2020-05-11 04:22:34,clear sky,0,0
Fairbanks,64.84,-147.72,73.99,78.8,28,1,13.87,US,2020-05-11 04:20:03,clear sky,0,0
Henties Bay,-22.12,14.28,69.08,69.08,48,27,0.98,NA,2020-05-11 04:22:34,scattered clouds,0,0
Homer,59.64,-151.55,43.0,48.0,81,1,11.41,US,2020-05-11 04:22:34,clear sky,0,0
Kruisfontein,-34.0,24.73,57.09,57.09,60,0,4.54,ZA,2020-05-11 04:22:34,clear sky,0,0
Abu Kamal,34.45,40.92,69.49,69.49,48,0,11.63,SY,2020-05-11 04:22:35,clear sky,0,0
Bani,18.28,-70.33,80.01,80.01,78,100,7.58,DO,2020-05-11 04:20:41,overcast clouds,0,0
Sistranda,63.73,8.83,35.6,35.6,80,75,19.46,NO,2020-05-11 04:22:35,shower rain,0,0
Krapivinskiy,55.0,86.81,71.6,71.6,40,0,6.71,RU,2020-05-11 04:22:35,clear sky,0,0
Butaritari,3.07,172.79,83.8,83.8,76,16,6.96,KI,2020-05-11 04:22:35,light rain,0,0
Okhotsk,59.38,143.3,46.45,46.45,55,78,6.17,RU,2020-05-11 04:22:36,broken clouds,0,0
Hasaki,35.73,140.83,77.0,86.0,65,40,12.75,JP,2020-05-11 04:22:36,scattered clouds,0,0
Esperance,-33.87,121.9,69.8,69.8,32,72,10.29,AU,2020-05-11 04:22:36,broken clouds,0,0
Grao Mogol,-16.56,-42.89,53.26,53.26,98,36,3.51,BR,2020-05-11 04:22:36,scattered clouds,0,0
Pisco,-13.7,-76.22,64.4,64.4,82,19,1.57,PE,2020-05-11 04:22:36,mist,0,0
Porto Novo,6.5,2.6,77.0,77.0,88,40,2.24,BJ,2020-05-11 04:22:37,scattered clouds,0,0
Maniitsoq,65.42,-52.9,42.53,42.53,69,95,16.33,GL,2020-05-11 04:22:37,overcast clouds,0,0
Buala,-8.14,159.59,84.6,84.6,74,98,5.66,SB,2020-05-11 04:22:37,moderate rain,0,0
Providencia,28.72,-111.58,72.0,72.0,61,81,7.74,MX,2020-05-11 04:22:37,broken clouds,0,0
Ponta Do Sol,32.67,-17.1,59.0,64.4,72,40,6.93,PT,2020-05-11 04:22:37,scattered clouds,0,0
Rocha,-34.48,-54.33,66.18,66.18,77,57,10.71,UY,2020-05-11 04:22:38,light rain,0,0
Plettenberg Bay,-34.05,23.37,61.05,61.05,69,0,4.54,ZA,2020-05-11 04:22:38,clear sky,0,0
Deputatskiy,69.3,139.9,26.38,26.38,99,100,7.29,RU,2020-05-11 04:22:38,light snow,0,0
Nelson Bay,-32.72,152.15,64.0,64.4,39,20,10.29,AU,2020-05-11 04:22:38,few clouds,0,0
Kuminskiy,58.67,66.57,68.85,68.85,60,84,3.15,RU,2020-05-11 04:22:03,broken clouds,0,0
Westport,41.14,-73.36,50.0,54.0,71,1,12.75,US,2020-05-11 04:21:59,clear sky,0,0
Nakasongola,1.31,32.46,65.79,65.79,98,100,7.52,UG,2020-05-11 04:22:39,light rain,0,0
Ongandjera,-17.88,15.07,68.83,68.83,44,60,8.43,NA,2020-05-11 04:22:39,broken clouds,0,0
Namatanai,-3.67,152.43,85.95,85.95,70,50,6.2,PG,2020-05-11 04:22:39,scattered clouds,0,0
Iracoubo,5.48,-53.2,77.97,77.97,90,94,15.46,GF,2020-05-11 04:22:39,heavy intensity rain,0,0
Nanortalik,60.14,-45.24,43.36,43.36,79,70,19.35,GL,2020-05-11 04:22:40,broken clouds,0,0
Lao Cai,22.48,103.95,97.23,97.23,40,78,2.8,VN,2020-05-11 04:22:40,broken clouds,0,0
Sechura,-5.56,-80.82,72.55,72.55,73,33,11.63,PE,2020-05-11 04:22:40,scattered clouds,0,0
Taraz,42.9,71.37,69.8,69.8,49,25,2.24,KZ,2020-05-11 04:19:32,scattered clouds,0,0
Hofn,64.25,-15.21,41.2,41.2,60,1,13.47,IS,2020-05-11 04:22:40,clear sky,0,0
La Primavera,5.49,-70.41,77.43,77.43,87,56,3.06,CO,2020-05-11 04:22:41,moderate rain,0,0
Erzin,36.96,36.2,64.0,64.0,92,26,1.01,TR,2020-05-11 04:22:41,scattered clouds,0,0
Taveta,-3.4,37.67,67.35,67.35,81,90,8.12,KE,2020-05-11 04:22:41,overcast clouds,0,0
Lompoc,34.64,-120.46,48.0,53.6,87,90,4.7,US,2020-05-11 04:22:41,overcast clouds,0,0
Petropavlovsk-Kamchatskiy,53.05,158.65,51.8,51.8,32,0,6.71,RU,2020-05-11 04:22:41,clear sky,0,0
Omboue,-1.57,9.26,73.58,73.58,91,100,0.38,GA,2020-05-11 04:22:41,overcast clouds,0,0
Nuuk,64.18,-51.72,46.0,46.4,61,99,9.17,GL,2020-05-11 04:22:42,overcast clouds,0,0
Beroroha,-21.67,45.17,67.15,67.15,70,0,3.13,MG,2020-05-11 04:22:42,clear sky,0,0
Kudahuvadhoo,2.67,72.89,85.75,85.75,79,99,16.82,MV,2020-05-11 04:22:42,moderate rain,0,0
Arrifes,37.77,-25.7,57.2,57.2,62,75,5.82,PT,2020-05-11 04:22:42,broken clouds,0,0
Mayo,38.89,-76.51,48.99,55.4,100,1,9.17,US,2020-05-11 04:22:42,clear sky,0,0
Faya,18.39,42.45,66.2,68.0,68,0,4.32,SA,2020-05-11 04:22:43,clear sky,0,0
Nanchong,30.8,106.08,79.3,79.3,27,65,11.97,CN,2020-05-11 04:22:43,broken clouds,0,0
Naze,28.37,129.48,75.2,77.0,69,20,11.41,JP,2020-05-11 04:22:43,few clouds,0,0
Guane,22.2,-84.09,75.36,75.36,89,99,6.64,CU,2020-05-11 04:22:43,overcast clouds,0,0
Deming,32.27,-107.76,66.2,66.2,45,1,6.93,US,2020-05-11 04:22:43,clear sky,0,0
Solnechnyy,50.72,136.63,52.03,52.03,68,100,3.22,RU,2020-05-11 04:22:44,light rain,0,0
Ubinskoye,55.31,79.68,72.25,72.25,42,0,6.96,RU,2020-05-11 04:22:44,clear sky,0,0
Mogadishu,2.04,45.34,78.8,78.8,65,40,8.05,SO,2020-05-11 04:22:44,scattered clouds,0,0
Margate,51.38,1.39,45.0,46.99,50,63,15.01,GB,2020-05-11 04:22:44,broken clouds,0,0
Quelimane,-17.88,36.89,66.09,66.09,95,34,6.04,MZ,2020-05-11 04:22:44,scattered clouds,0,0
Yar-Sale,66.83,70.83,33.55,33.55,99,93,7.56,RU,2020-05-11 04:22:45,overcast clouds,0,0
Prince Albert,53.2,-105.77,35.6,35.6,55,75,6.93,CA,2020-05-11 04:22:45,broken clouds,0,0
Kyabe,9.45,18.94,82.31,82.31,61,91,7.67,TD,2020-05-11 04:22:45,overcast clouds,0,0
Avarua,-21.21,-159.78,77.0,77.0,94,100,4.7,CK,2020-05-11 04:22:45,heavy intensity rain,0,0
Gorbehaza,47.83,21.23,59.0,59.0,72,0,4.7,HU,2020-05-11 04:22:45,clear sky,0,0
Half Moon Bay,37.46,-122.43,53.01,57.99,87,90,10.29,US,2020-05-11 04:22:46,overcast clouds,0,0
Warrington,53.39,-2.58,34.0,39.0,74,0,11.41,GB,2020-05-11 04:18:20,clear sky,0,0
Tavda,58.04,65.27,69.03,69.03,66,87,1.88,RU,2020-05-11 04:22:46,overcast clouds,0,0
San Carlos De Bariloche,-41.15,-71.31,42.8,42.8,81,20,14.99,AR,2020-05-11 04:22:46,few clouds,0,0
Vernon,50.26,-119.27,61.0,64.4,42,20,20.8,CA,2020-05-11 04:19:50,few clouds,0,0
Puerto Quijarro,-17.78,-57.77,73.54,73.54,82,2,3.74,BO,2020-05-11 04:22:47,clear sky,0,0
Kerema,-7.96,145.78,83.39,83.39,80,100,11.83,PG,2020-05-11 04:22:47,light rain,0,0
Santona,43.44,-3.46,55.99,57.2,87,100,8.05,ES,2020-05-11 04:22:47,overcast clouds,0,0
Sosnogorsk,63.6,53.88,47.5,47.5,71,96,8.12,RU,2020-05-11 04:22:47,overcast clouds,0,0
Ancud,-41.87,-73.82,44.6,48.99,100,37,2.24,CL,2020-05-11 04:21:01,light rain,0,0
Novogurovskiy,54.47,37.34,51.8,51.8,57,67,2.24,RU,2020-05-11 04:22:48,broken clouds,0,0
Garowe,8.41,48.48,79.99,79.99,66,32,2.91,SO,2020-05-11 04:22:48,scattered clouds,0,0
Wajima,37.4,136.9,66.2,66.2,68,40,18.34,JP,2020-05-11 04:22:48,scattered clouds,0,0
Stromness,58.97,-3.3,37.4,37.99,64,98,11.41,GB,2020-05-11 04:22:48,light snow,0,0
Bahia De Caraquez,-0.6,-80.42,78.8,78.8,83,46,2.24,EC,2020-05-11 04:22:49,scattered clouds,0,0
Nantucket,41.28,-70.1,46.99,48.2,70,1,27.51,US,2020-05-11 04:22:49,clear sky,0,0
Ouesso,1.61,16.05,71.1,71.1,95,93,1.81,CG,2020-05-11 04:22:49,overcast clouds,0,0
Nalchiti,22.63,90.28,95.18,95.18,40,0,4.81,BD,2020-05-11 04:22:49,clear sky,0,0
Queimadas,-10.98,-39.63,70.36,70.36,88,98,9.53,BR,2020-05-11 04:22:50,overcast clouds,0,0
Andilamena,-17.02,48.58,62.15,62.15,87,93,8.46,MG,2020-05-11 04:22:50,overcast clouds,0,0
Taoudenni,22.68,-3.98,88.88,88.88,12,100,10.83,ML,2020-05-11 04:22:50,overcast clouds,0,0
Antofagasta,-23.65,-70.4,60.8,60.8,77,90,5.82,CL,2020-05-11 04:21:14,overcast clouds,0,0
Kaduqli,11.02,29.72,79.02,79.02,16,47,3.31,SD,2020-05-11 04:22:50,scattered clouds,0,0
Pochutla,15.74,-96.47,84.0,84.0,80,4,1.79,MX,2020-05-11 04:22:51,clear sky,0,0
Tsiroanomandidy,-18.77,46.03,61.56,61.56,82,89,3.02,MG,2020-05-11 04:22:51,overcast clouds,0,0
Puerto Maldonado,-12.6,-69.18,72.66,72.66,79,5,2.1,PE,2020-05-11 04:22:51,clear sky,0,0
Kjopsvik,68.1,16.37,32.0,34.0,96,100,11.41,NO,2020-05-11 04:22:51,snow,0,0
Grantham,52.91,-0.64,39.0,39.2,85,2,13.87,GB,2020-05-11 04:22:52,clear sky,0,0
Iqaluit,63.75,-68.51,24.01,24.8,73,90,25.28,CA,2020-05-11 04:22:52,light snow,0,0
Hamilton,39.18,-84.53,43.0,46.4,65,75,19.46,US,2020-05-11 04:21:00,broken clouds,0,0
Oranjestad,12.52,-70.03,80.6,80.6,78,40,23.04,AW,2020-05-11 04:22:52,scattered clouds,0,0
Harper,4.38,-7.72,80.47,80.47,84,100,10.78,LR,2020-05-11 04:22:52,moderate rain,0,0
Roma,43.21,-75.46,39.99,41.0,93,90,3.53,US,2020-05-11 04:21:20,overcast clouds,0,0
Richards Bay,-28.78,32.04,60.64,60.64,70,0,7.11,ZA,2020-05-11 04:22:53,clear sky,0,0
Mason City,43.15,-93.2,42.01,42.8,60,90,12.75,US,2020-05-11 04:19:46,overcast clouds,0,0
Ketchikan,55.34,-131.65,64.4,64.4,34,1,3.36,US,2020-05-11 04:22:53,clear sky,0,0
Kintampo,8.06,-1.73,71.65,71.65,95,100,7.45,GH,2020-05-11 04:22:53,light rain,0,0
Mapiripan,2.89,-72.13,74.82,74.82,90,23,3.27,CO,2020-05-11 04:22:54,few clouds,0,0
Magdagachi,53.45,125.8,51.15,51.15,40,74,11.5,RU,2020-05-11 04:22:54,broken clouds,0,0
Sibu,2.3,111.82,87.01,89.6,70,75,2.24,MY,2020-05-11 04:22:54,broken clouds,0,0
Magadi,12.97,77.23,80.6,87.01,65,20,2.24,IN,2020-05-11 04:22:54,few clouds,0,0
Ngunguru,-35.62,174.5,62.01,63.0,80,70,7.0,NZ,2020-05-11 04:22:55,broken clouds,0,0
Sapa,5.15,120.32,85.14,85.14,73,74,1.7,PH,2020-05-11 04:22:55,light rain,0,0
Gannan,47.91,123.5,55.22,55.22,63,100,11.59,CN,2020-05-11 04:22:55,light rain,0,0
Kilindoni,-7.91,39.67,79.36,79.36,81,17,15.7,TZ,2020-05-11 04:22:55,light rain,0,0
Yantal,56.85,105.25,52.61,52.61,39,0,6.58,RU,2020-05-11 04:22:55,clear sky,0,0
Walvis Bay,-22.96,14.51,74.95,74.95,29,7,6.51,NA,2020-05-11 04:22:56,clear sky,0,0
Llangefni,53.26,-4.31,39.99,41.0,60,39,17.22,GB,2020-05-11 04:22:56,scattered clouds,0,0
Port-Gentil,-0.72,8.78,76.69,76.69,85,100,6.6,GA,2020-05-11 04:22:56,light rain,0,0
Talnakh,69.49,88.4,37.4,37.4,74,75,11.18,RU,2020-05-11 04:22:56,broken clouds,0,0
Palmer,42.16,-72.33,39.0,46.0,82,1,3.83,US,2020-05-11 04:22:56,clear sky,0,0
Guhagar,17.48,73.19,91.65,91.65,46,12,7.47,IN,2020-05-11 04:22:57,few clouds,0,0
Coutances,49.05,-1.43,48.0,48.0,32,100,15.01,FR,2020-05-11 04:22:57,overcast clouds,0,0
Kisangani,0.52,25.2,69.51,69.51,98,40,1.54,CD,2020-05-11 04:22:57,scattered clouds,0,0
Lexington,37.99,-84.48,44.6,45.0,89,1,11.41,US,2020-05-11 04:19:57,clear sky,0,0
Ust-Kulom,61.69,53.69,55.85,55.85,85,100,6.15,RU,2020-05-11 04:22:57,overcast clouds,0,0
Susurluk,39.91,28.16,50.0,50.0,93,90,4.7,TR,2020-05-11 04:22:58,overcast clouds,0,0
Kamaishi,39.27,141.88,71.6,71.6,56,75,9.17,JP,2020-05-11 04:22:58,broken clouds,0,0
Aripuana,-9.17,-60.63,72.86,72.86,97,95,1.3,BR,2020-05-11 04:22:58,light rain,0,0
Arlit,18.74,7.39,84.43,84.43,13,0,11.36,NE,2020-05-11 04:22:58,clear sky,0,0
Korem,12.51,39.52,58.06,58.06,55,97,2.66,ET,2020-05-11 04:22:58,overcast clouds,0,0
Byron Bay,-28.65,153.62,66.0,66.99,63,40,19.46,AU,2020-05-11 04:18:39,scattered clouds,0,0
Sibolga,1.74,98.78,88.81,88.81,57,100,2.73,ID,2020-05-11 04:22:59,overcast clouds,0,0
Haimen,23.19,116.61,84.2,84.2,70,75,6.71,CN,2020-05-11 04:22:59,broken clouds,0,0
Carballo,43.21,-8.69,48.0,50.0,100,90,4.7,ES,2020-05-11 04:22:59,fog,0,0
Darlowo,54.42,16.41,51.01,51.01,76,84,13.51,PL,2020-05-11 04:22:59,light rain,0,0
Sulangan,11.14,123.72,85.37,85.37,68,100,4.79,PH,2020-05-11 04:22:59,overcast clouds,0,0
Te Anau,-45.42,167.72,50.52,50.52,90,100,1.45,NZ,2020-05-11 04:21:53,light rain,0,0
Ingham,42.6,-84.38,34.0,37.0,93,90,5.82,US,2020-05-11 04:23:00,light rain,0,0
Charlestown,-32.95,151.67,64.0,69.01,43,0,1.01,AU,2020-05-11 04:23:00,clear sky,0,0
Neftcala,39.37,49.25,57.65,57.65,77,100,9.08,AZ,2020-05-11 04:23:00,light rain,0,0
Ilebo,-4.32,20.58,70.18,70.18,96,30,0.89,CD,2020-05-11 04:23:01,scattered clouds,0,0
Santarem,-2.44,-54.71,78.8,78.8,94,40,3.36,BR,2020-05-11 04:23:01,scattered clouds,0,0
Kargasok,59.06,80.86,77.49,77.49,33,59,3.4,RU,2020-05-11 04:23:01,broken clouds,0,0
Cam Ranh,11.92,109.16,95.0,95.0,59,20,8.05,VN,2020-05-11 04:23:01,few clouds,0,0
Juneau,58.3,-134.42,62.01,62.6,42,75,6.93,US,2020-05-11 04:23:02,broken clouds,0,0
Ios,36.73,25.28,60.01,62.6,63,61,8.05,GR,2020-05-11 04:23:02,broken clouds,0,0
Belyy Yar,53.6,91.39,69.8,69.8,35,22,2.24,RU,2020-05-11 04:23:02,few clouds,0,0
Bay City,43.59,-83.89,37.4,39.0,93,90,5.82,US,2020-05-11 04:23:02,overcast clouds,0,0
The Valley,18.22,-63.06,78.01,80.6,74,40,16.11,AI,2020-05-11 04:23:03,scattered clouds,0,0
La Asuncion,11.03,-63.86,87.8,87.8,100,17,20.8,VE,2020-05-11 04:23:03,few clouds,0,0
Tuatapere,-46.13,167.68,52.54,52.54,91,100,3.69,NZ,2020-05-11 04:23:03,light rain,0,0
Lipari,38.47,14.95,64.99,66.99,87,100,1.01,IT,2020-05-11 04:23:03,overcast clouds,0,0
Supaul,26.12,86.6,98.1,98.1,27,91,8.84,IN,2020-05-11 04:23:04,overcast clouds,0,0
Grand-Santi,4.25,-54.38,73.18,73.18,97,96,1.97,GF,2020-05-11 04:23:04,overcast clouds,0,0
Samana,19.21,-69.34,76.24,76.24,87,100,5.57,DO,2020-05-11 04:23:04,light rain,0,0
Treinta Y Tres,-33.23,-54.38,68.65,68.65,62,68,9.51,UY,2020-05-11 04:23:04,broken clouds,0,0
Bourail,-21.57,165.48,74.91,74.91,65,51,4.12,NC,2020-05-11 04:23:04,light rain,0,0
Niteroi,-22.88,-43.1,64.4,64.4,82,0,3.36,BR,2020-05-11 04:23:04,clear sky,0,0
Newtownards,54.59,-5.69,35.01,37.99,64,0,13.87,GB,2020-05-11 04:23:05,clear sky,0,0
Bintulu,3.17,113.03,78.8,78.8,94,90,1.03,MY,2020-05-11 04:23:05,thunderstorm with light rain,0,0
Fleetwood,53.93,-3.01,35.01,37.0,71,0,8.99,GB,2020-05-11 04:23:05,clear sky,0,0
Tagab,34.85,69.65,71.6,73.4,49,75,1.1,AF,2020-05-11 04:23:05,broken clouds,0,0
Tambacounda,13.75,-13.76,84.2,84.2,45,10,6.93,SN,2020-05-11 04:23:06,clear sky,0,0
Sangar,63.92,127.47,39.42,39.42,74,30,7.67,RU,2020-05-11 04:23:06,scattered clouds,0,0
Champerico,14.3,-91.92,85.78,85.78,71,41,2.84,GT,2020-05-11 04:23:06,scattered clouds,0,0
Teluknaga,-6.1,106.64,87.8,93.2,59,20,4.7,ID,2020-05-11 04:23:06,few clouds,0,0
Staryy Nadym,65.61,72.68,45.61,45.61,75,73,12.53,RU,2020-05-11 04:23:06,broken clouds,0,0
Shubarshi,48.59,57.19,58.93,58.93,91,100,9.31,KZ,2020-05-11 04:23:07,moderate rain,0,0
Great Yarmouth,52.61,1.73,43.0,45.0,70,40,10.0,GB,2020-05-11 04:23:07,scattered clouds,0,0
Ugoofaaru,5.67,73.0,82.96,82.96,78,100,6.87,MV,2020-05-11 04:23:07,light rain,0,0
Kuching,1.55,110.33,89.01,89.6,70,40,3.36,MY,2020-05-11 04:20:41,scattered clouds,0,0
Giyon,8.53,37.98,60.44,60.44,73,1,6.82,ET,2020-05-11 04:23:07,clear sky,0,0
Tocopilla,-22.09,-70.2,62.73,62.73,65,24,4.85,CL,2020-05-11 04:23:08,few clouds,0,0
Manavalakurichi,8.13,77.3,89.6,89.6,70,40,4.7,IN,2020-05-11 04:23:08,haze,0,0
George,-33.96,22.46,55.4,55.4,100,90,2.24,ZA,2020-05-11 04:23:08,mist,0,0
Colares,38.8,-9.45,57.99,62.01,87,54,20.49,PT,2020-05-11 04:23:08,light rain,0,0
Urengoy,65.97,78.37,42.17,42.17,82,63,3.4,RU,2020-05-11 04:18:30,light rain,0,0
Tromso,69.65,18.96,32.0,32.0,96,90,38.03,NO,2020-05-11 04:23:08,light shower snow,0,0
Torrelavega,43.35,-4.05,54.0,55.99,89,99,3.0,ES,2020-05-11 04:23:09,overcast clouds,0,0
Kisesa,-3.08,34.15,61.02,61.02,89,95,8.16,TZ,2020-05-11 04:23:09,overcast clouds,0,0
Sioux Lookout,50.1,-91.92,28.4,28.4,42,5,5.82,CA,2020-05-11 04:23:09,clear sky,0,0
Razole,16.48,81.83,92.73,92.73,54,0,6.55,IN,2020-05-11 04:23:09,clear sky,0,0
Manbij,36.53,37.95,57.2,57.2,76,0,7.92,SY,2020-05-11 04:23:10,clear sky,0,0
Labytnangi,66.66,66.42,39.67,39.67,88,20,2.84,RU,2020-05-11 04:23:10,few clouds,0,0
Yerbogachen,61.28,108.01,43.0,43.0,57,79,9.51,RU,2020-05-11 04:23:10,broken clouds,0,0
Barkly West,-28.54,24.52,44.6,44.6,87,0,1.12,ZA,2020-05-11 04:23:10,clear sky,0,0
Oyama,36.3,139.8,77.0,84.0,50,20,9.17,JP,2020-05-11 04:23:10,few clouds,0,0
Golden,39.76,-105.22,46.99,55.0,37,75,9.17,US,2020-05-11 04:20:07,broken clouds,0,0
Pangai,-19.8,-174.35,80.6,80.6,78,20,11.41,TO,2020-05-11 04:23:11,few clouds,0,0
San Pedro,14.35,121.02,93.99,96.01,53,20,6.93,PH,2020-05-11 04:23:11,few clouds,0,0
Hong Gai,20.96,107.09,87.8,87.8,74,75,12.75,VN,2020-05-11 04:23:11,broken clouds,0,0
Miri,4.41,114.01,82.0,87.8,74,75,3.36,MY,2020-05-11 04:23:11,thunderstorm,0,0
Mikuni,36.22,136.15,71.6,71.6,56,20,20.8,JP,2020-05-11 04:23:12,few clouds,0,0
Calabozo,8.92,-67.43,82.81,82.81,52,27,4.92,VE,2020-05-11 04:23:12,scattered clouds,0,0
Halifax,44.65,-63.57,37.99,39.0,60,25,1.01,CA,2020-05-11 04:18:24,scattered clouds,0,0
Bela,25.93,81.98,102.06,102.06,16,24,9.28,IN,2020-05-11 04:23:12,few clouds,0,0
Verona,45.42,11.03,57.99,60.01,93,100,9.17,IT,2020-05-11 04:23:12,moderate rain,0,0
Rock Sound,24.9,-76.2,76.06,76.06,85,100,11.68,BS,2020-05-11 04:23:13,overcast clouds,0,0
Mata,40.68,-7.46,51.01,51.01,95,95,2.46,PT,2020-05-11 04:23:13,moderate rain,0,0
Tourlaville,49.64,-1.57,44.6,48.0,65,90,25.28,FR,2020-05-11 04:23:13,overcast clouds,0,0
Cap Malheureux,-19.98,57.61,73.0,73.0,62,100,4.0,MU,2020-05-11 04:23:14,overcast clouds,0,0
Asfi,32.3,-9.24,62.76,62.76,78,0,4.7,MA,2020-05-11 04:23:14,clear sky,0,0
Mehamn,71.04,27.85,33.8,33.8,86,75,16.11,NO,2020-05-11 04:23:14,broken clouds,0,0
Sorong,-0.88,131.25,85.95,85.95,78,99,8.28,ID,2020-05-11 04:23:14,light rain,0,0
Hokitika,-42.72,170.97,57.13,57.13,82,100,4.54,NZ,2020-05-11 04:23:15,light rain,0,0
Noumea,-22.28,166.46,78.01,78.8,57,39,8.05,NC,2020-05-11 04:22:55,scattered clouds,0,0
Saint-Pierre,-21.34,55.48,64.0,72.0,60,75,6.93,RE,2020-05-11 04:23:15,broken clouds,0,0
Kedougou,12.56,-12.17,81.09,81.09,59,91,2.66,SN,2020-05-11 04:23:15,overcast clouds,0,0
Biltine,14.53,20.92,82.58,82.58,14,0,17.34,TD,2020-05-11 04:23:16,clear sky,0,0
Toucheng,24.86,121.82,80.01,82.4,78,75,16.11,TW,2020-05-11 04:23:16,broken clouds,0,0
Torata,-17.08,-70.84,59.07,59.07,49,3,0.78,PE,2020-05-11 04:23:16,clear sky,0,0
Payo,-3.75,103.64,91.22,91.22,57,72,1.97,ID,2020-05-11 04:23:16,broken clouds,0,0
Los Llanos De Aridane,28.66,-17.92,66.2,66.2,77,26,5.82,ES,2020-05-11 04:23:17,scattered clouds,0,0
Punta Gorda,26.93,-82.05,66.0,68.0,93,1,4.7,US,2020-05-11 04:18:35,clear sky,0,0
Vilhena,-12.74,-60.15,69.15,69.15,95,23,2.59,BR,2020-05-11 04:23:17,few clouds,0,0
Klyuchi,52.27,79.17,78.21,78.21,35,100,10.8,RU,2020-05-11 04:23:17,overcast clouds,0,0
Belaya Gora,68.53,146.42,33.28,33.28,99,100,8.21,RU,2020-05-11 04:23:17,light snow,0,0
Nichlaul,27.32,83.73,96.75,96.75,21,88,6.91,IN,2020-05-11 04:23:18,overcast clouds,0,0
Redlands,34.06,-117.18,55.0,69.01,67,78,3.42,US,2020-05-11 04:19:45,broken clouds,0,0
San Rafael,-34.62,-68.33,55.62,55.62,50,29,5.46,AR,2020-05-11 04:23:18,scattered clouds,0,0
Omsukchan,62.53,155.8,33.85,33.85,92,100,1.01,RU,2020-05-11 04:23:18,light snow,0,0
Kropotkin,45.44,40.58,50.0,50.0,85,92,15.41,RU,2020-05-11 04:23:18,overcast clouds,0,0
Ishikari,43.24,141.35,57.2,57.2,71,75,12.75,JP,2020-05-11 04:23:19,light intensity shower rain,0,0
Aswan,24.09,32.91,71.24,71.24,30,0,10.2,EG,2020-05-11 04:23:19,clear sky,0,0
Marabba,12.35,32.18,80.4,80.4,16,7,5.73,SD,2020-05-11 04:23:19,clear sky,0,0
Sihor,21.7,71.97,88.3,88.3,44,1,2.46,IN,2020-05-11 04:23:19,clear sky,0,0
Sturgis,41.8,-85.42,37.0,37.4,100,90,11.41,US,2020-05-11 04:23:19,light rain,0,0
